id,link,operation,size,dorms,toilets,garage,price,additional_costs,scraping_date,type,street,neighborhood,city,latitude,longitude
2790786382,https://www.vivareal.com.br/imovel/apartamento-2-quartos-cerqueira-cesar-centro-sao-paulo-com-garagem-130m2-aluguel-RS11996-id-2790786382/,renting,130,2,3,1,11996,2427,2025-04-01,Apartamento,Rua da Consolação,Cerqueira César,São Paulo,-23.556228,-46.6635914
2792669542,https://www.vivareal.com.br/imovel/apartamento-1-quartos-brooklin-zona-sul-sao-paulo-com-garagem-72m2-venda-RS1500100-id-2792669542/,renting,72,1,2,1,7350,1750,2025-04-01,Apartamento,Rua Pássaros e Flores,Jardim das Acácias,São Paulo,-22.118815,-46.683995
2732587814,https://www.vivareal.com.br/imovel/sala-comercial-brooklin-zona-sul-sao-paulo-com-garagem-406m2-venda-RS8200000-id-2732587814/,renting,406,0,8,12,48671,74809,2025-04-01,Sala/Conjunto,Rua Castilho,Brooklin Paulista,São Paulo,-23.412202,-46.825977
2792088931,https://www.vivareal.com.br/imovel/apartamento-1-quartos-campo-belo-sao-paulo-com-garagem-51m2-aluguel-RS3200-id-2792088931/,renting,51,1,1,1,3200,900,2025-04-01,Apartamento,Rua Doutor Jesuíno Maciel,Campo Belo,São Paulo,-23.6162492,-46.6756913
2792188813,https://www.vivareal.com.br/imovel/casa-2-quartos-vila-guarani-z-sul-sao-paulo-com-garagem-55m2-aluguel-RS1800-id-2792188813/,renting,55,2,1,1,1800,55,2025-04-01,Casa,Rua Edgard Pereira,Vila Guarani (Z Sul),São Paulo,-23.634608,-46.63183
2792162060,https://www.vivareal.com.br/imovel/sala-comercial-bela-vista-sao-paulo-30m2-venda-RS450000-id-2792162060/,renting,30,0,2,0,2200,1030,2025-04-01,Sala/Conjunto,0,Bela Vista,São Paulo,-21.0374681,-48.0388194
2792302038,https://www.vivareal.com.br/imovel/apartamento-2-quartos-vila-pereira-cerca-sao-paulo-com-garagem-48m2-aluguel-RS1500-id-2792302038/,renting,48,2,1,1,1500,488,2025-04-01,Apartamento,0,Vila Pereira Cerca,São Paulo,-23.4949919,-46.7126086
2791973167,https://www.vivareal.com.br/imovel/casa-2-quartos-cupece-sao-paulo-90m2-aluguel-RS2200-id-2791973167/,renting,90,2,2,0,2200,135,2025-04-01,Casa,Rua João Protezek,Cupecê,São Paulo,-23.570533,-46.663713
2792072676,https://www.vivareal.com.br/imovel/sobrado-3-quartos-instituto-de-previdencia-sao-paulo-com-garagem-190m2-aluguel-RS3400-id-2792072676/,renting,190,3,3,2,3400,219,2025-04-01,Casa,Rua Engenheiro Artur de Miranda,Instituto de Previdência,São Paulo,-23.570533,-46.663713
2792083577,https://www.vivareal.com.br/imovel/sobrado-3-quartos-cambuci-sao-paulo-com-garagem-130m2-aluguel-RS4500-id-2792083577/,renting,130,3,4,2,4500,1000,2025-04-01,Casa,0,Cambuci,São Paulo,-23.5659114,-46.61367950054397
0,0,renting,8730,0,10,72,218350,22224,2025-04-01,Prédio/Edificio inteiro,Rua Doutor Virgílio do Nascimento,Brás,São Paulo,-23.527663,-46.611326
2792335630,https://www.vivareal.com.br/imovel/apartamento-2-quartos-parque-cruzeiro-do-sul-sao-paulo-com-garagem-47m2-aluguel-RS1800-id-2792335630/,renting,47,2,1,1,1800,30,2025-04-01,Apartamento,Rua Líbero Ancona Lopez,Parque Cruzeiro do Sul,São Paulo,-22.739194,-47.48164
2792187247,https://www.vivareal.com.br/imovel/apartamento-1-quartos-sumarezinho-sao-paulo-44m2-aluguel-RS3400-id-2792187247/,renting,44,1,1,0,3400,624,2025-04-01,Apartamento,Rua Paulistânia,Sumarezinho,São Paulo,-23.5464359,-46.6923931
0,0,renting,5493,0,0,83,300100,14735,2025-04-01,Prédio/Edificio inteiro,Rua Bela Cintra,Consolação,São Paulo,-23.5553601,-46.6606577
2792287834,https://www.vivareal.com.br/imovel/apartamento-1-quartos-consolacao-sao-paulo-50m2-aluguel-RS2480-id-2792287834/,renting,50,1,1,0,2480,765,2025-04-01,Apartamento,Rua Frei Caneca,Consolação,São Paulo,-23.5549416,-46.6554795
2792322116,https://www.vivareal.com.br/imovel/casa-2-quartos-vila-gustavo-sao-paulo-com-garagem-82m2-aluguel-RS2200-id-2792322116/,renting,82,2,1,2,2200,700,2025-04-01,Casa,Rua Elvira,Vila Gustavo,São Paulo,-23.4880704,-46.5964984
2792182023,https://www.vivareal.com.br/imovel/apartamento-2-quartos-quarta-parada-sao-paulo-85m2-aluguel-RS2150-id-2792182023/,renting,85,2,1,0,2150,294,2025-04-01,Apartamento,Avenida Álvaro Ramos,Quarta Parada,São Paulo,-23.570533,-46.663713
2792178616,https://www.vivareal.com.br/imovel/apartamento-3-quartos-cidade-vargas-sao-paulo-com-garagem-61m2-aluguel-RS2300-id-2792178616/,renting,61,3,2,1,2300,800,2025-04-01,Apartamento,Rua Francisco Duarte Graça,Cidade Vargas,São Paulo,-23.719466,-46.706325
0,0,renting,620,0,8,6,75100,4719,2025-04-01,Prédio/Edificio inteiro,Rua Joaquim de Almeida,Mirandópolis,São Paulo,-23.6063516,-46.6458678
0,0,renting,2360,0,0,51,150100,23438,2025-04-01,Prédio/Edificio inteiro,Rua Vergueiro,Vila Mariana,São Paulo,-23.5827356,-46.63768
0,0,renting,2703,0,0,60,216100,1219,2025-04-01,Prédio/Edificio inteiro,Rua Doutora Neyde Apparecida Sollitto,Vila Clementino,São Paulo,-23.5934869,-46.6470592
2792109127,https://www.vivareal.com.br/imovel/sala-comercial-vila-leopoldina-sao-paulo-com-garagem-50m2-aluguel-RS2000-id-2792109127/,renting,50,0,1,1,2000,1080,2025-04-01,Sala/Conjunto,Rua Mergenthaler,Vila Leopoldina,São Paulo,-23.5284296,-46.7373362
2792123454,https://www.vivareal.com.br/imovel/apartamento-1-quartos-agua-branca-sao-paulo-36m2-aluguel-RS2150-id-2792123454/,renting,36,1,1,0,2150,450,2025-04-01,Apartamento,Rua Guaicurus,Água Branca,São Paulo,-23.5202435,-46.701289
2792575821,https://www.vivareal.com.br/imovel/sala-comercial-vila-marieta-sao-paulo-32m2-aluguel-RS1150-id-2792575821/,renting,32,0,1,0,1150,320,2025-04-01,Sala/Conjunto,Avenida São Miguel,Vila Marieta,São Paulo,-23.5148713,-46.5200703
0,0,renting,1083,0,10,19,25100,4896,2025-04-01,Prédio/Edificio inteiro,Rua Correia de Lemos,Chácara Inglesa,São Paulo,-23.6082346,-46.6328773
2792071445,https://www.vivareal.com.br/imovel/galpao-deposito-armazem-rio-pequeno-sao-paulo-260m2-aluguel-RS7000-id-2792071445/,renting,260,0,2,0,7000,0,2025-04-01,Galpão/Depósito/Armazém,Rua Luca Carlevaris,Rio Pequeno,São Paulo,-23.5691132,-46.7575282
2792264945,https://www.vivareal.com.br/imovel/apartamento-3-quartos-jaguare-sao-paulo-com-garagem-95m2-aluguel-RS2700-id-2792264945/,renting,95,3,3,2,2700,1200,2025-04-01,Apartamento,Rua Caetanópolis,Jaguaré,São Paulo,-23.5479994,-46.7528612
2792253841,https://www.vivareal.com.br/imovel/apartamento-2-quartos-liberdade-sao-paulo-80m2-aluguel-RS3400-id-2792253841/,renting,80,2,1,0,3400,893,2025-04-01,Apartamento,Rua Maestro Cardim,Liberdade,São Paulo,-23.570472,-46.642057
2791759827,https://www.vivareal.com.br/imovel/apartamento-2-quartos-vila-carrao-sao-paulo-com-garagem-62m2-aluguel-RS2000-id-2791759827/,renting,62,2,2,2,2000,983,2025-04-01,Apartamento,Rua Renato Rinaldi,Vila Carrão,São Paulo,-23.5550185,-46.5310255
2792247838,https://www.vivareal.com.br/imovel/apartamento-1-quartos-vila-dom-pedro-i-sao-paulo-com-garagem-40m2-aluguel-RS1600-id-2792247838/,renting,40,1,1,1,1600,300,2025-04-01,Apartamento,Rua Gama Lobo,Vila Dom Pedro I,São Paulo,-23.6035028,-46.6115247
0,0,renting,90,1,2,2,7200,9615,2025-04-01,Apartamento,Avenida Engenheiro Luiz Carlos Berrini,Cidade Monções,São Paulo,-20.852156,-50.091497
2792105939,https://www.vivareal.com.br/imovel/apartamento-1-quartos-mirandopolis-sao-paulo-45m2-aluguel-RS1700-id-2792105939/,renting,45,1,1,0,1700,800,2025-04-01,Apartamento,Rua das Camélias,Mirandópolis,São Paulo,-21.226088,-50.860802
2792317839,https://www.vivareal.com.br/imovel/casa-de-condominio-3-quartos-vila-mazzei-sao-paulo-com-garagem-165m2-aluguel-RS3750-id-2792317839/,renting,165,3,4,2,3750,433,2025-04-01,Casa de condomínio,Rua Comprida,Vila Mazzei,São Paulo,-23.4704165,-46.6022501
0,0,renting,528,0,8,3,29000,407,2025-04-01,Prédio/Edificio inteiro,Rua Senador César Lacerda Vergueiro,Sumarezinho,São Paulo,-23.5470166,-46.6928675
0,0,renting,8813,0,0,25,220425,17273,2025-04-01,Prédio/Edificio inteiro,Avenida Guapira,Tucuruvi,São Paulo,-23.4779665,-46.5978978
2791995219,https://www.vivareal.com.br/imovel/apartamento-2-quartos-jardim-sao-joao-jaragua-sao-paulo-com-garagem-50m2-aluguel-RS1450-id-2791995219/,renting,50,2,1,1,1450,401,2025-04-01,Apartamento,Rua Friedrich Von Voith,Jardim São João (Jaraguá),São Paulo,-23.434381,-46.743395
2792126614,https://www.vivareal.com.br/imovel/apartamento-1-quartos-chacara-seis-de-outubro-sao-paulo-34m2-aluguel-RS1400-id-2792126614/,renting,34,1,1,0,1400,155,2025-04-01,Apartamento,Avenida Marcondes de Brito,Chácara Seis de Outubro,São Paulo,-23.537175,-46.528641
2792319229,https://www.vivareal.com.br/imovel/casa-1-quartos-vila-gustavo-sao-paulo-com-garagem-50m2-aluguel-RS1600-id-2792319229/,renting,50,1,1,1,1600,50,2025-04-01,Casa,Rua Elvira,Vila Gustavo,São Paulo,-23.4880704,-46.5964984
2792355016,https://www.vivareal.com.br/imovel/apartamento-1-quartos-pinheiros-sao-paulo-30m2-aluguel-RS1690-id-2792355016/,renting,30,1,1,0,1690,514,2025-04-01,Apartamento,Rua Deputado Lacerda Franco,Pinheiros,São Paulo,-23.5630312,-46.6906662
2791870116,https://www.vivareal.com.br/imovel/sala-comercial-planalto-paulista-sao-paulo-com-garagem-36m2-aluguel-RS1450-id-2791870116/,renting,36,0,2,1,1450,680,2025-04-01,Sala/Conjunto,Avenida Itacira,Planalto Paulista,São Paulo,-23.617302,-46.64748
2791802919,https://www.vivareal.com.br/imovel/sobrado-4-quartos-vila-constanca-sao-paulo-com-garagem-150m2-aluguel-RS3000-id-2791802919/,renting,150,4,2,3,3000,0,2025-04-01,Casa,0,Vila Constança,São Paulo,-23.521796,-46.696664
2792019455,https://www.vivareal.com.br/imovel/casa-2-quartos-jardim-japao-sao-paulo-40m2-aluguel-RS1400-id-2792019455/,renting,40,2,1,0,1400,67,2025-04-01,Casa,Avenida Conceição,Jardim Japão,São Paulo,-23.4989672,-46.5893287
2778673222,https://www.vivareal.com.br/imovel/apartamento-3-quartos-vila-gustavo-sao-paulo-com-garagem-68m2-venda-RS550000-id-2778673222/,renting,68,3,2,2,2800,1096,2025-04-01,Apartamento,Rua Dragões da Independência,Vila Gustavo,São Paulo,-23.478572,-46.5955
2791913521,https://www.vivareal.com.br/imovel/apartamento-2-quartos-jardim-das-acacias-sao-paulo-com-garagem-92m2-aluguel-RS10000-id-2791913521/,renting,92,2,3,2,10000,950,2025-04-01,Apartamento,Rua Joaquim Guarani,Jardim das Acácias,São Paulo,-22.118815,-46.683995
0,0,renting,1240,0,8,8,90100,0,2025-04-01,Imóvel comercial,Rua Artur de Azevedo,Cerqueira César,São Paulo,-23.5575179,-46.6731436
2791845820,https://www.vivareal.com.br/imovel/apartamento-3-quartos-belenzinho-sao-paulo-com-garagem-87m2-aluguel-RS4200-id-2791845820/,renting,87,3,3,2,4200,1210,2025-04-01,Apartamento,Rua Júlio de Castilhos,Belenzinho,São Paulo,-23.539935,-46.589909
2785793651,https://www.vivareal.com.br/imovel/sala-comercial-brooklin-paulista-sao-paulo-com-garagem-65m2-venda-RS950000-id-2785793651/,renting,65,0,2,2,5000,1902,2025-04-01,Sala/Conjunto,Rua Ribeiro do Vale,Brooklin Paulista,São Paulo,-23.61262,-46.687792
0,0,renting,77,1,2,2,6600,1081,2025-04-01,Apartamento,Rua Américo Brasiliense,Alto da Boa Vista,São Paulo,-21.1803658,-47.8056714
0,0,renting,2290,1,6,30,200100,28014,2025-04-01,Imóvel comercial,Rua Bela Cintra,Consolação,São Paulo,-23.5553601,-46.6606577
0,0,renting,45,1,1,1,3100,715,2025-04-01,Apartamento,Praça Barão de Itaqui,Vila Gomes Cardim,São Paulo,-23.54036675,-46.568056850000005
2791754713,https://www.vivareal.com.br/imovel/apartamento-2-quartos-vila-das-merces-sao-paulo-com-garagem-57m2-venda-RS395000-id-2791754713/,renting,57,2,2,1,2650,590,2025-04-01,Apartamento,Rua Dom Vilares,Vila das Mercês,São Paulo,-23.624311,-46.6051814
2791763732,https://www.vivareal.com.br/imovel/casa-1-quartos-saude-sao-paulo-60m2-aluguel-RS1500-id-2791763732/,renting,60,1,1,0,1500,510,2025-04-01,Casa,Rua Doutor Samuel Porto,Saúde,São Paulo,-23.6151341,-46.639629
2792101719,https://www.vivareal.com.br/imovel/sala-comercial-bras-sao-paulo-35m2-aluguel-RS1500-id-2792101719/,renting,35,0,1,0,1500,0,2025-04-01,Sala/Conjunto,Rua Correia de Andrade,Brás,São Paulo,-23.5427851,-46.6199894
2792069066,https://www.vivareal.com.br/imovel/apartamento-2-quartos-jardim-das-vertentes-sao-paulo-75m2-aluguel-RS3000-id-2792069066/,renting,75,2,2,0,3000,760,2025-04-01,Apartamento,Avenida Albert Bartholome,Jardim das Vertentes,São Paulo,-23.591984,-46.740058
2792202064,https://www.vivareal.com.br/imovel/casa-1-quartos-vila-siqueira-zona-norte-sao-paulo-com-garagem-40m2-aluguel-RS1350-id-2792202064/,renting,40,1,1,1,1350,0,2025-04-01,Casa,0,Vila Siqueira (Zona Norte),São Paulo,-23.549252,-46.588615
2792143820,https://www.vivareal.com.br/imovel/apartamento-2-quartos-vila-siqueira-zona-norte-sao-paulo-com-garagem-40m2-venda-RS360000-id-2792143820/,renting,40,2,1,1,2120,450,2025-04-01,Apartamento,Avenida Sebastião Henriques,Vila Siqueira (Zona Norte),São Paulo,-23.570533,-46.663713
2792167121,https://www.vivareal.com.br/imovel/apartamento-2-quartos-vila-moraes-sao-paulo-49m2-aluguel-RS1700-id-2792167121/,renting,49,2,1,0,1700,400,2025-04-01,Apartamento,Rua Angaturama,Vila Moraes,São Paulo,-23.499237,-46.594846
0,0,renting,137,3,3,2,13800,2381,2025-04-01,Apartamento,Rua Bela Vista,Santo Amaro,São Paulo,-23.6312483,-46.695523
2792184832,https://www.vivareal.com.br/imovel/apartamento-2-quartos-vila-ema-sao-paulo-40m2-aluguel-RS2200-id-2792184832/,renting,40,2,1,0,2200,289,2025-04-01,Apartamento,Avenida Vila Ema,Vila Ema,São Paulo,-23.588124,-46.54381
2791812517,https://www.vivareal.com.br/imovel/apartamento-2-quartos-quarta-parada-sao-paulo-com-garagem-66m2-aluguel-RS2950-id-2791812517/,renting,66,2,1,1,2950,1095,2025-04-01,Apartamento,Rua João Soares,Quarta Parada,São Paulo,-23.570533,-46.663713
2791707339,https://www.vivareal.com.br/imovel/apartamento-2-quartos-jardim-esmeralda-sao-paulo-com-garagem-58m2-aluguel-RS2300-id-2791707339/,renting,58,2,2,1,2300,604,2025-04-01,Apartamento,Rua Doutor João Vieira Neves,Jardim Esmeralda,São Paulo,-20.301508,-51.049235
2792073917,https://www.vivareal.com.br/imovel/apartamento-2-quartos-jardim-esmeralda-sao-paulo-com-garagem-60m2-aluguel-RS3200-id-2792073917/,renting,60,2,1,1,3200,818,2025-04-01,Apartamento,Avenida Engenheiro Heitor Antônio Eiras Garcia,Jardim Esmeralda,São Paulo,-20.301508,-51.049235
2792069872,https://www.vivareal.com.br/imovel/apartamento-2-quartos-jardim-esmeralda-sao-paulo-com-garagem-60m2-aluguel-RS3300-id-2792069872/,renting,60,2,1,1,3300,820,2025-04-01,Apartamento,Avenida Engenheiro Heitor Antônio Eiras Garcia,Jardim Esmeralda,São Paulo,-20.301508,-51.049235
2792127416,https://www.vivareal.com.br/imovel/kitnet-1-quartos-jaguare-sao-paulo-com-garagem-20m2-aluguel-RS1300-id-2792127416/,renting,20,1,1,1,1300,0,2025-04-01,Apartamento,Rua Francisco Pedro do Amaral,Jaguaré,São Paulo,-23.5498325,-46.7468499
0,0,renting,300,1,5,0,30100,2385,2025-04-01,Imóvel comercial,Rua Doutor Diogo de Faria,Vila Clementino,São Paulo,-23.5956004,-46.6451745
2792206610,https://www.vivareal.com.br/imovel/sala-comercial-vila-marieta-sao-paulo-50m2-aluguel-RS2200-id-2792206610/,renting,50,0,1,0,2200,161,2025-04-01,Sala/Conjunto,Avenida São Miguel,Vila Marieta,São Paulo,-23.5148713,-46.5200703
2792200731,https://www.vivareal.com.br/imovel/ponto-comercial-jardim-monjolo-sao-paulo-70m2-aluguel-RS2000-id-2792200731/,renting,70,0,1,0,2000,100,2025-04-01,Ponto comercial/Loja/Box,0,Jardim Monjolo,São Paulo,-23.585668,-46.609589
2790874785,https://www.vivareal.com.br/imovel/apartamento-1-quartos-brooklin-paulista-sao-paulo-com-garagem-45m2-aluguel-RS4800-id-2790874785/,renting,45,1,1,1,4800,719,2025-04-01,Apartamento,Rua Castilho,Brooklin Paulista,São Paulo,-23.412202,-46.825977
2792255061,https://www.vivareal.com.br/imovel/apartamento-3-quartos-lauzane-paulista-sao-paulo-com-garagem-94m2-aluguel-RS3500-id-2792255061/,renting,94,3,3,3,3500,1640,2025-04-01,Apartamento,Rua Plínio Colas,Lauzane Paulista,São Paulo,-23.4795395,-46.6418183
2792031814,https://www.vivareal.com.br/imovel/sala-comercial-penha-de-franca-sao-paulo-com-garagem-30m2-aluguel-RS2000-id-2792031814/,renting,30,0,1,1,2000,684,2025-04-01,Sala/Conjunto,0,Penha de França,São Paulo,-23.523683,-46.5437815
2791850146,https://www.vivareal.com.br/imovel/apartamento-2-quartos-perdizes-sao-paulo-com-garagem-85m2-aluguel-RS8500-id-2791850146/,renting,85,2,3,2,8500,1237,2025-04-01,Apartamento,Rua Minerva,Perdizes,São Paulo,-23.5361426,-46.6744665
0,0,renting,1050,0,10,8,35100,6680,2025-04-01,Imóvel comercial,Avenida Queiroz Filho,Vila Hamburguesa,São Paulo,-23.5406719,-46.728734
2791876825,https://www.vivareal.com.br/imovel/apartamento-3-quartos-saude-sao-paulo-com-garagem-80m2-aluguel-RS2350-id-2791876825/,renting,80,3,2,2,2350,1075,2025-04-01,Apartamento,Rua Abagiba,Saúde,São Paulo,-23.619797,-46.607257
2792043246,https://www.vivareal.com.br/imovel/apartamento-2-quartos-vila-suzana-sao-paulo-com-garagem-64m2-aluguel-RS2900-id-2792043246/,renting,64,2,1,1,2900,565,2025-04-01,Apartamento,Rua Doutor Laerte Setúbal,Vila Suzana,São Paulo,-23.618227,-46.730849
0,0,renting,120,0,3,1,4150,700,2025-04-01,Sala/Conjunto,Rua Coronel Botelho,Bela Aliança,São Paulo,-23.5229309,-46.7265644
0,0,renting,2082,0,10,0,50100,4637,2025-04-01,Prédio/Edificio inteiro,Rua Líbero Badaró,Centro,São Paulo,-23.935639,-46.325439
2792286127,https://www.vivareal.com.br/imovel/apartamento-2-quartos-jabaquara-sao-paulo-com-garagem-65m2-aluguel-RS2000-id-2792286127/,renting,65,2,1,1,2000,587,2025-04-01,Apartamento,Avenida Doutor Luís Rocha Miranda,Jabaquara,São Paulo,-23.6366356,-46.6446038
2792181318,https://www.vivareal.com.br/imovel/apartamento-2-quartos-vila-clarice-sao-paulo-57m2-aluguel-RS1900-id-2792181318/,renting,57,2,1,0,1900,50,2025-04-01,Apartamento,Avenida Inácia de Toledo,Vila Clarice,São Paulo,-23.618109,-46.566812
2792070684,https://www.vivareal.com.br/imovel/apartamento-2-quartos-jardim-esmeralda-sao-paulo-com-garagem-60m2-aluguel-RS3300-id-2792070684/,renting,60,2,1,1,3300,820,2025-04-01,Apartamento,Avenida Engenheiro Heitor Antônio Eiras Garcia,Jardim Esmeralda,São Paulo,-20.301508,-51.049235
0,0,renting,350,0,2,0,4700,480,2025-04-01,Ponto comercial/Loja/Box,Rua Caquito,Vila São Geraldo,São Paulo,-21.130314,-47.782847
2792159917,https://www.vivareal.com.br/imovel/apartamento-1-quartos-consolacao-sao-paulo-com-garagem-40m2-aluguel-RS2250-id-2792159917/,renting,40,1,1,1,2250,1062,2025-04-01,Apartamento,Rua Bela Cintra,Consolação,São Paulo,-23.5553601,-46.6606577
2792071257,https://www.vivareal.com.br/imovel/sobrado-2-quartos-parque-ipe-sao-paulo-com-garagem-120m2-aluguel-RS2800-id-2792071257/,renting,120,2,3,1,2800,0,2025-04-01,Casa,Rua Mário Ancona,Parque Ipê,São Paulo,-23.5981111,-46.7966267
2792123455,https://www.vivareal.com.br/imovel/apartamento-1-quartos-agua-branca-sao-paulo-26m2-aluguel-RS2400-id-2792123455/,renting,26,1,1,0,2400,272,2025-04-01,Apartamento,Rua Mateo Forte,Água Branca,São Paulo,-23.5129887,-46.7004228
2792317843,https://www.vivareal.com.br/imovel/apartamento-2-quartos-luz-sao-paulo-60m2-aluguel-RS1800-id-2792317843/,renting,60,2,1,0,1800,160,2025-04-01,Apartamento,Rua Doutor Pedro Arbues,Luz,São Paulo,-23.5348268,-46.6303441
0,0,renting,984,0,8,12,35100,4340,2025-04-01,Imóvel comercial,Rua Corredeira,Bosque da Saúde,São Paulo,-23.618465,-46.63565
2791857614,https://www.vivareal.com.br/imovel/casa-de-condominio-2-quartos-vila-paiva-sao-paulo-42m2-aluguel-RS1700-id-2791857614/,renting,42,2,1,0,1700,283,2025-04-01,Casa de condomínio,Rua Caçador,Vila Paiva,São Paulo,-23.502137,-46.60719
2792127570,https://www.vivareal.com.br/imovel/apartamento-1-quartos-vila-prudente-sao-paulo-35m2-aluguel-RS1500-id-2792127570/,renting,35,1,1,0,1500,0,2025-04-01,Apartamento,Rua Capitão Pacheco e Chaves,Vila Prudente,São Paulo,-23.5818214,-46.5877181
2791869934,https://www.vivareal.com.br/imovel/apartamento-1-quartos-bela-vista-sao-paulo-25m2-aluguel-RS3200-id-2791869934/,renting,25,1,1,0,3200,391,2025-04-01,Apartamento,Rua Doutor Penaforte Mendes,Bela Vista,São Paulo,-23.5547955,-46.6516181
2791114622,https://www.vivareal.com.br/imovel/apartamento-1-quartos-campo-belo-sao-paulo-com-garagem-62m2-aluguel-RS5950-id-2791114622/,renting,62,1,2,1,5950,1161,2025-04-01,Apartamento,Rua Constantino de Sousa,Campo Belo,São Paulo,-23.6168959,-46.6731273
